[
  {
    "name": "Port of Barcelona",
    "country": "Spain",
    "lat": 41.34617645,
    "lng": 2.168364487,
    "url": "/port-of-barcelona"
  },
  {
    "name": "Port of Antwerp",
    "country": "Belgium",
    "lat": 51.2408729,
    "lng": 4.4072947,
    "url": "/port-of-antwerp"
  },
  {
    "name": "Port of Rotterdam",
    "country": "Netherlands",
    "lat": 51.9496008,
    "lng": 4.145263,
    "url": "/port-of-rotterdam"
  },
  {
    "name": "Port of Hamburg",
    "country": "Germany",
    "lat": 53.50942978,
    "lng": 9.965476617,
    "url": "/port-of-hamburg"
  },
  {
    "name": "Port of Felixstowe",
    "country": "United Kingdom",
    "lat": 51.9491514,
    "lng": 1.3239048,
    "url": "/port-of-felixstowe"
  },
  {
    "name": "Port of Le Havre",
    "country": "France",
    "lat": 49.4719317,
    "lng": 0.1474997,
    "url": "/port-of-le-havre"
  },
  {
    "name": "Port of Jeddah",
    "country": "Saudi Arabia",
    "lat": 21.4669167,
    "lng": 39.1744182,
    "url": "/port-of-jeddah"
  },
  {
    "name": "Port of Abu Dhabi",
    "country": "United Arab Emirates",
    "lat": 24.453884,
    "lng": 54.3773438,
    "url": "/port-of-abu-dhabi"
  },
  {
    "name": "Port of Mumbai",
    "country": "India",
    "lat": 18.9482881,
    "lng": 72.8441629,
    "url": "/port-of-mumbai"
  },
  {
    "name": "Port of Salalah",
    "country": "Oman",
    "lat": 16.9414873,
    "lng": 53.9953894,
    "url": "/port-of-salalah"
  },
  {
    "name": "Port of Aqaba",
    "country": "Jordan",
    "lat": 29.5320522,
    "lng": 35.0063209,
    "url": "/port-of-aqaba"
  },
  {
    "name": "Port of Palermo",
    "country": "Italy",
    "lat": 38.1301897,
    "lng": 13.3630417,
    "url": "/port-of-palermo"
  },
  {
    "name": "Port of Tanger Med",
    "country": "Morocco",
    "lat": 31.791702,
    "lng": -7.09262,
    "url": "/port-of-tanger-med"
  },
  {
    "name": "Port of Las Palmas",
    "country": "Spain",
    "lat": 28.13797943,
    "lng": -15.41559454,
    "url": "/port-of-las-palmas"
  },
  {
    "name": "Port of Nouakchott",
    "country": "Mauritania",
    "lat": 17.9923124,
    "lng": -16.0223573,
    "url": "/port-of-nouakchott"
  },
  {
    "name": "Port of Casablanca",
    "country": "Morocco",
    "lat": 33.6037308,
    "lng": -7.5965129,
    "url": "/port-of-casablanca"
  },
  {
    "name": "Port of Algiers",
    "country": "Algeria",
    "lat": 36.7662258,
    "lng": 3.0597323,
    "url": "/port-of-algiers"
  },
  {
    "name": "Port of Genoa",
    "country": "Italy",
    "lat": 44.4071448,
    "lng": 8.9347381,
    "url": "/port-of-genoa"
  },
  {
    "name": "Port of Izmir",
    "country": "Turkey",
    "lat": 38.4456467,
    "lng": 27.156866,
    "url": "/port-of-izmir"
  },
  {
    "name": "Port of Piraeus",
    "country": "Greece",
    "lat": 37.9405556,
    "lng": 23.6333333,
    "url": "/port-of-piraeus"
  },
  {
    "name": "Port of Durres",
    "country": "Albania",
    "lat": 41.313922,
    "lng": 19.455799,
    "url": "/port-of-durres"
  },
  {
    "name": "Port of Bar Montenegro",
    "country": "Montenegro",
    "lat": 42.0922222,
    "lng": 19.0844444,
    "url": "/port-of-bar-montenegro"
  },
  {
    "name": "Port of Bari",
    "country": "Italy",
    "lat": 41.1327435,
    "lng": 16.8668087,
    "url": "/port-of-bari"
  },
  {
    "name": "Port of Valletta",
    "country": "Malta",
    "lat": 35.8917469,
    "lng": 14.5100038,
    "url": "/port-of-valletta"
  },
  {
    "name": "Port of Lisbon",
    "country": "Portugal",
    "lat": 38.7104027,
    "lng": -9.1262866,
    "url": "/port-of-lisbon"
  },
  {
    "name": "Port of Misurata",
    "country": "Libya",
    "lat": 32.3591399,
    "lng": 15.2209435,
    "url": "/port-of-misurata"
  },
  {
    "name": "Port of Port Said",
    "country": "Egypt",
    "lat": 31.2598318,
    "lng": 32.3027541,
    "url": "/port-of-port-said"
  },
  {
    "name": "Port of Valencia",
    "country": "Spain",
    "lat": 39.4480851,
    "lng": -0.3169267,
    "url": "/port-of-valencia"
  },
  {
    "name": "Port of Marseille",
    "country": "France",
    "lat": 43.29446463,
    "lng": 5.364514693,
    "url": "/port-of-marseille"
  },
  {
    "name": "Port of Civitavecchia",
    "country": "Italy",
    "lat": 42.1007242,
    "lng": 11.7829578,
    "url": "/port-of-civitavecchia"
  },
  {
    "name": "Port of Rades",
    "country": "Tunisia",
    "lat": 36.7992001,
    "lng": 10.2964735,
    "url": "/port-of-rades"
  },
  {
    "name": "Port of Damietta",
    "country": "Egypt",
    "lat": 31.47088749,
    "lng": 31.76228645,
    "url": "/port-of-damietta"
  },
  {
    "name": "Port of Beirut",
    "country": "Lebanon",
    "lat": 33.9027573,
    "lng": 35.5176967,
    "url": "/port-of-beirut"
  },
  {
    "name": "Port of Oran",
    "country": "Algeria",
    "lat": 35.7110083,
    "lng": -0.6399627,
    "url": "/port-of-oran"
  },
  {
    "name": "Port of Palma de Mallorca",
    "country": "Spain",
    "lat": 39.5575308,
    "lng": 2.631956136,
    "url": "/port-of-palma-de-mallorca"
  },
  {
    "name": "Port of Busan",
    "country": "South Korea",
    "lat": 35.1035355,
    "lng": 129.0423688,
    "url": "/port-of-busan"
  }
]