[
  {
    "name": "Port of Barcelona",
    "country": "Spain",
    "lat": 41.34617645,
    "lng": 2.168364487
  },
  {
    "name": "Port of Antwerp",
    "country": "Belgium",
    "lat": 51.2408729,
    "lng": 4.4072947
  },
  {
    "name": "Port of Rotterdam",
    "country": "Netherlands",
    "lat": 51.9496008,
    "lng": 4.145263
  },
  {
    "name": "Port of Hamburg",
    "country": "Germany",
    "lat": 53.50942978,
    "lng": 9.965476617
  },
  {
    "name": "Port of Felixstowe",
    "country": "United Kingdom",
    "lat": 51.9491514,
    "lng": 1.3239048
  },
  {
    "name": "Port of Le Havre",
    "country": "France",
    "lat": 49.4719317,
    "lng": 0.1474997
  },
  {
    "name": "Port of Jeddah",
    "country": "Saudi Arabia",
    "lat": 21.4669167,
    "lng": 39.1744182
  },
  {
    "name": "Port of Abu Dhabi",
    "country": "United Arab Emirates",
    "lat": 24.453884,
    "lng": 54.3773438
  },
  {
    "name": "Port of Mumbai",
    "country": "India",
    "lat": 18.9482881,
    "lng": 72.8441629
  },
  {
    "name": "Port of Salalah",
    "country": "Oman",
    "lat": 16.9414873,
    "lng": 53.9953894
  },
  {
    "name": "Port of Aqaba",
    "country": "Jordan",
    "lat": 29.5320522,
    "lng": 35.0063209
  },
  {
    "name": "Port of Palermo",
    "country": "Italy",
    "lat": 38.1301897,
    "lng": 13.3630417
  },
  {
    "name": "Port of Tanger Med",
    "country": "Morocco",
    "lat": 35.893444,
    "lng": -5.502303
  },
  {
    "name": "Port of Las Palmas",
    "country": "Spain",
    "lat": 28.13797943,
    "lng": -15.41559454
  },
  {
    "name": "Port of Nouakchott",
    "country": "Mauritania",
    "lat": 17.9923124,
    "lng": -16.0223573
  },
  {
    "name": "Port of Casablanca",
    "country": "Morocco",
    "lat": 33.6037308,
    "lng": -7.5965129
  },
  {
    "name": "Port of Algiers",
    "country": "Algeria",
    "lat": 36.7662258,
    "lng": 3.0597323
  },
  {
    "name": "Port of Genoa",
    "country": "Italy",
    "lat": 44.4071448,
    "lng": 8.9347381
  },
  {
    "name": "Port of Izmir",
    "country": "Turkey",
    "lat": 38.4456467,
    "lng": 27.156866
  },
  {
    "name": "Port of Piraeus",
    "country": "Greece",
    "lat": 37.9405556,
    "lng": 23.6333333
  },
  {
    "name": "Port of Durres",
    "country": "Albania",
    "lat": 41.313922,
    "lng": 19.455799
  },
  {
    "name": "Port of Bar Montenegro",
    "country": "Montenegro",
    "lat": 42.0922222,
    "lng": 19.0844444
  },
  {
    "name": "Port of Bari",
    "country": "Italy",
    "lat": 41.1327435,
    "lng": 16.8668087
  },
  {
    "name": "Port of Valletta",
    "country": "Malta",
    "lat": 35.8917469,
    "lng": 14.5100038
  },
  {
    "name": "Port of Lisbon",
    "country": "Portugal",
    "lat": 38.7104027,
    "lng": -9.1262866
  },
  {
    "name": "Port of Misurata",
    "country": "Libya",
    "lat": 32.3591399,
    "lng": 15.2209435
  },
  {
    "name": "Port of Port Said",
    "country": "Egypt",
    "lat": 31.2598318,
    "lng": 32.3027541
  },
  {
    "name": "Port of Valencia",
    "country": "Spain",
    "lat": 39.4480851,
    "lng": -0.3169267
  },
  {
    "name": "Port of Marseille",
    "country": "France",
    "lat": 43.29446463,
    "lng": 5.364514693
  },
  {
    "name": "Port of Civitavecchia",
    "country": "Italy",
    "lat": 42.1007242,
    "lng": 11.7829578
  },
  {
    "name": "Port of Rades",
    "country": "Tunisia",
    "lat": 36.7992001,
    "lng": 10.2964735
  },
  {
    "name": "Port of Damietta",
    "country": "Egypt",
    "lat": 31.47088749,
    "lng": 31.76228645
  },
  {
    "name": "Port of Beirut",
    "country": "Lebanon",
    "lat": 33.9027573,
    "lng": 35.5176967
  },
  {
    "name": "Port of Oran",
    "country": "Algeria",
    "lat": 35.7110083,
    "lng": -0.6399627
  },
  {
    "name": "Port of Palma de Mallorca",
    "country": "Spain",
    "lat": 39.5575308,
    "lng": 2.631956136
  },
  {
    "name": "Port of Busan",
    "country": "South Korea",
    "lat": 35.1035355,
    "lng": 129.0423688
  },
  {
    "name": "Port of Setubal",
    "country": "Portugal",
    "lat": 38.5216,
    "lng": -8.8926
  },
  {
    "name": "Port of Shanghai",
    "country": "China",
    "lat": 31.2304,
    "lng": 121.4737
  },
  {
    "name": "Port of Singapore",
    "country": "Singapore",
    "lat": 1.2644,
    "lng": 103.82
  },
  {
    "name": "Port of Ningbo - Zhoushan",
    "country": "China",
    "lat": 29.9344,
    "lng": 122.3081
  },
  {
    "name": "Port of Qingdao",
    "country": "China",
    "lat": 36.0671,
    "lng": 120.3826
  },
  {
    "name": "Port of Shenzhen",
    "country": "China",
    "lat": 22.5431,
    "lng": 114.0579
  },
  {
    "name": "Port of Tianjin",
    "country": "China",
    "lat": 39.3434,
    "lng": 117.3616
  },
  {
    "name": "Port of Port Kelang",
    "country": "Malaysia",
    "lat": 2.9916,
    "lng": 101.3431
  },
  {
    "name": "Port of Xiamen",
    "country": "China",
    "lat": 24.4798,
    "lng": 118.0894
  },
  {
    "name": "Port of Beibu Gulf",
    "country": "China",
    "lat": 21.4805,
    "lng": 109.1201
  }
]
