
[  
  {
    "name": "Port of Barcelona",
    "country": "Spain",
    "lat": 41.34617645,
    "lng": 2.168364487
  },
 {
    "name": "Port of Antwerp",
    "country": "Belgium",
    "lat": 51.2408729,
    "lng": 4.4072947
  },
  {
    "name": "Port of Rotterdam",
    "country": "Netherlands",
    "lat": 51.9496008,
    "lng": 4.145263
  },
  {
    "name": "Port of Hamburg",
    "country": "Germany",
    "lat": 53.50942978,
    "lng": 9.965476617
  },
  {
    "name": "Port of Felixstowe",
    "country": "United Kingdom",
    "lat": 51.9491514,
    "lng": 1.3239048
  },
  {
    "name": "Port of Le Havre",
    "country": "France",
    "lat": 49.4719317,
    "lng": 0.1474997
  },
  {
    "name": "Port of Jeddah",
    "country": "Saudi Arabia",
    "lat": 21.4669167,
    "lng": 39.1744182
  },
  {
    "name": "Port of Abu Dhabi",
    "country": "United Arab Emirates",
    "lat": 24.453884,
    "lng": 54.3773438
  },
  {
    "name": "Port of Mumbai",
    "country": "India",
    "lat": 18.9482881,
    "lng": 72.8441629
  },
  {
    "name": "Port of Salalah",
    "country": "Oman",
    "lat": 16.9414873,
    "lng": 53.9953894
  },
  {
    "name": "Port of Aqaba",
    "country": "Jordan",
    "lat": 29.5320522,
    "lng": 35.0063209
  },
  {
    "name": "Port of Palermo",
    "country": "Italy",
    "lat": 38.1301897,
    "lng": 13.3630417
  },
  {
    "name": "Port of Tanger Med",
    "country": "Morocco",
    "lat": 35.893444,
    "lng": -5.502303
  },
  {
    "name": "Port of Las Palmas",
    "country": "Spain",
    "lat": 28.13797943,
    "lng": -15.41559454
  },
  {
    "name": "Port of Nouakchott",
    "country": "Mauritania",
    "lat": 17.9923124,
    "lng": -16.0223573
  },
  {
    "name": "Port of Casablanca",
    "country": "Morocco",
    "lat": 33.6037308,
    "lng": -7.5965129
  },
  {
    "name": "Port of Algiers",
    "country": "Algeria",
    "lat": 36.7662258,
    "lng": 3.0597323
  },
  {
    "name": "Port of Genoa",
    "country": "Italy",
    "lat": 44.4071448,
    "lng": 8.9347381
  },
  {
    "name": "Port of Izmir",
    "country": "Turkey",
    "lat": 38.4456467,
    "lng": 27.156866
  },
  {
    "name": "Port of Piraeus",
    "country": "Greece",
    "lat": 37.9405556,
    "lng": 23.6333333
  },
  {
    "name": "Port of Durres",
    "country": "Albania",
    "lat": 41.313922,
    "lng": 19.455799
  },
  {
    "name": "Port of Bar Montenegro",
    "country": "Montenegro",
    "lat": 42.0922222,
    "lng": 19.0844444
  },
  {
    "name": "Port of Bari",
    "country": "Italy",
    "lat": 41.1327435,
    "lng": 16.8668087
  },
  {
    "name": "Port of Valletta",
    "country": "Malta",
    "lat": 35.8917469,
    "lng": 14.5100038
  },
  {
    "name": "Port of Lisbon",
    "country": "Portugal",
    "lat": 38.7104027,
    "lng": -9.1262866
  },
  {
    "name": "Port of Misurata",
    "country": "Libya",
    "lat": 32.3591399,
    "lng": 15.2209435
  },
  {
    "name": "Port of Port Said",
    "country": "Egypt",
    "lat": 31.2598318,
    "lng": 32.3027541
  },
  {
    "name": "Port of Valencia",
    "country": "Spain",
    "lat": 39.4480851,
    "lng": -0.3169267
  },
  {
    "name": "Port of Marseille",
    "country": "France",
    "lat": 43.29446463,
    "lng": 5.364514693
  },
  {
    "name": "Port of Civitavecchia",
    "country": "Italy",
    "lat": 42.1007242,
    "lng": 11.7829578
  },
  {
    "name": "Port of Rades",
    "country": "Tunisia",
    "lat": 36.7992001,
    "lng": 10.2964735
  },
  {
    "name": "Port of Damietta",
    "country": "Egypt",
    "lat": 31.47088749,
    "lng": 31.76228645
  },
  {
    "name": "Port of Beirut",
    "country": "Lebanon",
    "lat": 33.9027573,
    "lng": 35.5176967
  },
  {
    "name": "Port of Oran",
    "country": "Algeria",
    "lat": 35.7110083,
    "lng": -0.6399627
  },
  {
    "name": "Port of Palma de Mallorca",
    "country": "Spain",
    "lat": 39.5575308,
    "lng": 2.631956136
  },
  {
    "name": "Port of Busan",
    "country": "South Korea",
    "lat": 35.1035355,
    "lng": 129.0423688
  },
  {
    "name": "Port of Setubal",
    "country": "Portugal",
    "lat": 38.5216,
    "lng": -8.8926
  },
  {
    "name": "Port of Shanghai",
    "country": "China",
    "lat": 31.2304,
    "lng": 121.4737
  },
  {
    "name": "Port of Singapore",
    "country": "Singapore",
    "lat": 1.2644,
    "lng": 103.82
  },
  {
    "name": "Port of Ningbo - Zhoushan",
    "country": "China",
    "lat": 29.9344,
    "lng": 122.3081
  },
  {
    "name": "Port of Qingdao",
    "country": "China",
    "lat": 36.0671,
    "lng": 120.3826
  },
  {
    "name": "Port of Shenzhen",
    "country": "China",
    "lat": 22.5431,
    "lng": 114.0579
  },
  {
    "name": "Port of Tianjin",
    "country": "China",
    "lat": 39.3434,
    "lng": 117.3616
  },
  {
    "name": "Port of Port Kelang",
    "country": "Malaysia",
    "lat": 2.9916,
    "lng": 101.3431
  },
  {
    "name": "Port of Xiamen",
    "country": "China",
    "lat": 24.4798,
    "lng": 118.0894
  },
  {
    "name": "Port of Beibu Gulf",
    "country": "China",
    "lat": 21.4805,
    "lng": 109.1201
  },
   {
    "name": "Port of Yokohama",
    "country": "Japan",
    "lat": 35.4500,
    "lng": 139.6380
  },
  {
    "name": "Port of Kobe",
    "country": "Japan",
    "lat": 34.6803,
    "lng": 135.1878
  },
  {
    "name": "Port of Nagoya",
    "country": "Japan",
    "lat": 35.0833,
    "lng": 136.8833
  },
  {
    "name": "Port of Moji",
    "country": "Japan",
    "lat": 33.9333,
    "lng": 130.9667
  },
  {
    "name": "Port of Tomakomai",
    "country": "Japan",
    "lat": 42.6300,
    "lng": 141.6033
  },
  {
    "name": "Port of Melbourne",
    "country": "Australia",
    "lat": -37.814,
    "lng": 144.9633
  },
  {
    "name": "Port Botany",
    "country": "Australia",
    "lat": -33.9461,
    "lng": 151.2166
  },
  {
    "name": "Port of Brisbane",
    "country": "Australia",
    "lat": -27.3739,
    "lng": 153.1631
  },
  {
    "name": "Port Hedland",
    "country": "Australia",
    "lat": -20.3104,
    "lng": 118.606
  },
  {
    "name": "Port of Fremantle",
    "country": "Australia",
    "lat": -32.05,
    "lng": 115.75
  },
  {
    "name": "Port of Newcastle",
    "country": "Australia",
    "lat": -32.9267,
    "lng": 151.7817
  },
  {
    "name": "Darwin Port",
    "country": "Australia",
    "lat": -12.4634,
    "lng": 130.8456
  },
  {
    "name": "Port of Adelaide",
    "country": "Australia",
    "lat": -34.8444,
    "lng": 138.5044
  },
    {
    "name": "Jawaharlal Nehru Port (JNPT)",
    "country": "India",
    "lat": 18.9633,
    "lng": 72.9514
  },
  {
    "name": "Mundra Port",
    "country": "India",
    "lat": 22.7271,
    "lng": 69.7099
  },
  {
    "name": "Chennai Port",
    "country": "India",
    "lat": 13.0827,
    "lng": 80.2921
  },
  {
    "name": "Kolkata Port",
    "country": "India",
    "lat": 22.5462,
    "lng": 88.3131
  },
  {
    "name": "Visakhapatnam Port",
    "country": "India",
    "lat": 17.6851,
    "lng": 83.2562
  },
  {
    "name": "Cochin Port",
    "country": "India",
    "lat": 9.9667,
    "lng": 76.2667
  },
    {
    "name": "Port Klang (Port Kelang)",
    "country": "Malaysia",
    "lat": 3.0033,
    "lng": 101.4
  },
  {
    "name": "Port of Tanjung Pelepas",
    "country": "Malaysia",
    "lat": 1.3675,
    "lng": 103.5386
  },
  {
    "name": "Penang Port",
    "country": "Malaysia",
    "lat": 5.4146,
    "lng": 100.3433
  },
  {
    "name": "Bintulu Port",
    "country": "Malaysia",
    "lat": 3.17,
    "lng": 113.041
  },
  {
    "name": "Kuantan Port",
    "country": "Malaysia",
    "lat": 3.9765,
    "lng": 103.4283
  },
  {
    "name": "Port of Constanța",
    "country": "Romania",
    "lat": 44.1598,
    "lng": 28.6522
  },
  {
    "name": "Port of Odessa",
    "country": "Ukraine",
    "lat": 46.4900,
    "lng": 30.7417
  },
  {
    "name": "Port of Novorossiysk",
    "country": "Russia",
    "lat": 44.7150,
    "lng": 37.7650
  },
  {
    "name": "Port of Poti",
    "country": "Georgia",
    "lat": 42.1500,
    "lng": 41.6667
  },
  {
    "name": "Port of Samsun",
    "country": "Turkey",
    "lat": 41.2867,
    "lng": 36.3300
  },
  {
    "name": "Port of Varna",
    "country": "Bulgaria",
    "lat": 43.2039,
    "lng": 27.9194
  }
   {
    "name": "Port Said",
    "country": "Egypt",
    "lat": 31.2653,
    "lng": 32.3019
  },
  {
    "name": "Port of Suez",
    "country": "Egypt",
    "lat": 29.9668,
    "lng": 32.5498
  },
    {
    "name": "Port of A Coruña",
    "country": "Spain",
    "lat": 43.3689,
    "lng": -8.3958
  },
  {
    "name": "Port of Alicante",
    "country": "Spain",
    "lat": 38.3382,
    "lng": -0.4796
  },
  {
    "name": "Port of Almería",
    "country": "Spain",
    "lat": 36.8372,
    "lng": -2.4637
  },
  {
    "name": "Port of Avilés",
    "country": "Spain",
    "lat": 43.5531,
    "lng": -5.9214
  },
  {
    "name": "Port of Algeciras",
    "country": "Spain",
    "lat": 36.1284,
    "lng": -5.4461
  },
  {
    "name": "Port of Cádiz",
    "country": "Spain",
    "lat": 36.5297,
    "lng": -6.2926
  },
  {
    "name": "Port of Bilbao",
    "country": "Spain",
    "lat": 43.3294,
    "lng": -3.0414
  },
  {
    "name": "Port of Cartagena",
    "country": "Spain",
    "lat": 37.5986,
    "lng": -0.9819
  },
  {
    "name": "Port of Castellón",
    "country": "Spain",
    "lat": 39.9683,
    "lng": 0.0246
  },
  {
    "name": "Port of Ceuta",
    "country": "Spain",
    "lat": 35.889,
    "lng": -5.306
  },
  {
    "name": "Outer Port of Ferrol",
    "country": "Spain",
    "lat": 43.4932,
    "lng": -8.2758
  },
  {
    "name": "Port of El Musel (Gijón)",
    "country": "Spain",
    "lat": 43.5536,
    "lng": -5.692
  },
  {
    "name": "Outer Port of Huelva",
    "country": "Spain",
    "lat": 37.1939,
    "lng": -6.9417
  },
  {
    "name": "Port of Las Palmas (La Luz)",
    "country": "Spain",
    "lat": 28.1333,
    "lng": -15.4167
  },
  {
    "name": "Port of Málaga",
    "country": "Spain",
    "lat": 36.715,
    "lng": -4.4162
  },
  {
    "name": "Port of Marín",
    "country": "Spain",
    "lat": 42.3935,
    "lng": -8.7052
  },
  {
    "name": "Port of Melilla",
    "country": "Spain",
    "lat": 35.2833,
    "lng": -2.95
  },
  {
    "name": "Port of Motril",
    "country": "Spain",
    "lat": 36.7227,
    "lng": -3.5182
  },
  {
    "name": "Port of Pasaia",
    "country": "Spain",
    "lat": 43.3269,
    "lng": -1.9306
  },
  {
    "name": "Port of Santa Cruz de Tenerife",
    "country": "Spain",
    "lat": 28.4624,
    "lng": -16.2479
  },
  {
    "name": "Port of Santander",
    "country": "Spain",
    "lat": 43.46,
    "lng": -3.8079
  },
  {
    "name": "Port of Seville",
    "country": "Spain",
    "lat": 37.3578,
    "lng": -6.0308
  },
  {
    "name": "Port of Tarragona",
    "country": "Spain",
    "lat": 41.1066,
    "lng": 1.2345
  },
  {
    "name": "Port of Vigo",
    "country": "Spain",
    "lat": 42.2406,
    "lng": -8.7207
  },
  {
    "name": "Port of Vilagarcía de Arousa",
    "country": "Spain",
    "lat": 42.5964,
    "lng": -8.764
  },
  {
    "name": "Port of Trieste",
    "country": "Italy",
    "lat": 45.6456,
    "lng": 13.7576
  },
  {
    "name": "Port of Venice",
    "country": "Italy",
    "lat": 45.437,
    "lng": 12.3218
  },
  {
    "name": "Port of Ravenna",
    "country": "Italy",
    "lat": 44.417,
    "lng": 12.2
  },
  {
    "name": "Port of Ancona",
    "country": "Italy",
    "lat": 43.6167,
    "lng": 13.5167
  },
  {
    "name": "Port of La Spezia",
    "country": "Italy",
    "lat": 44.11,
    "lng": 9.8333
  },
  {
    "name": "Port of Livorno",
    "country": "Italy",
    "lat": 43.55,
    "lng": 10.3
  },
  {
    "name": "Port of Naples",
    "country": "Italy",
    "lat": 40.84,
    "lng": 14.25
  },
  {
    "name": "Port of Salerno",
    "country": "Italy",
    "lat": 40.6833,
    "lng": 14.7667
  },
  {
    "name": "Port of Gioia Tauro",
    "country": "Italy",
    "lat": 38.4333,
    "lng": 15.9
  },
  {
    "name": "Port of Taranto",
    "country": "Italy",
    "lat": 40.4667,
    "lng": 17.2333
  },
  {
    "name": "Port of Bari",
    "country": "Italy",
    "lat": 41.1333,
    "lng": 16.8667
  },
  {
    "name": "Port of Cagliari",
    "country": "Italy",
    "lat": 39.2167,
    "lng": 9.1167
  },
  {
    "name": "Port of Augusta",
    "country": "Italy",
    "lat": 37.2333,
    "lng": 15.2167
  },
  {
    "name": "Port of Messina",
    "country": "Italy",
    "lat": 38.2,
    "lng": 15.5667
  },
  {
    "name": "Port of Porto Torres",
    "country": "Italy",
    "lat": 40.8333,
    "lng": 8.4
  },
  {
    "name": "Port of Olbia",
    "country": "Italy",
    "lat": 40.9233,
    "lng": 9.4989
  },
  {
    "name": "Port of Vancouver",
    "country": "Canada",
    "lat": 49.3,
    "lng": -123.1167
  },
  {
    "name": "Port of Montreal",
    "country": "Canada",
    "lat": 45.5,
    "lng": -73.55
  },
  {
    "name": "Port of Prince Rupert",
    "country": "Canada",
    "lat": 54.315,
    "lng": -130.32
  },
  {
    "name": "Port of Halifax",
    "country": "Canada",
    "lat": 44.65,
    "lng": -63.57
  },
  {
    "name": "Port of Saint John",
    "country": "Canada",
    "lat": 45.27,
    "lng": -66.06
  },
  {
    "name": "Port of Quebec",
    "country": "Canada",
    "lat": 46.81,
    "lng": -71.21
  },
  {
    "name": "Port of Hamilton",
    "country": "Canada",
    "lat": 43.27,
    "lng": -79.86
  },
  {
    "name": "Port of Toronto",
    "country": "Canada",
    "lat": 43.65,
    "lng": -79.35
  },
  {
    "name": "Port of Windsor",
    "country": "Canada",
    "lat": 42.32,
    "lng": -83.03
  },
  {
    "name": "Port of Los Angeles",
    "country": "United States",
    "lat": 33.738,
    "lng": -118.271
  },
  {
    "name": "Port of Long Beach",
    "country": "United States",
    "lat": 33.75,
    "lng": -118.2
  },
  {
    "name": "Port of New York and New Jersey",
    "country": "United States",
    "lat": 40.6681,
    "lng": -74.0413
  },
  {
    "name": "Port of Savannah",
    "country": "United States",
    "lat": 32.0809,
    "lng": -81.0912
  },
  {
    "name": "Port of Houston",
    "country": "United States",
    "lat": 29.7364,
    "lng": -95.2656
  },
  {
    "name": "Port of Seattle",
    "country": "United States",
    "lat": 47.6026,
    "lng": -122.3382
  },
  {
    "name": "Port of Oakland",
    "country": "United States",
    "lat": 37.7955,
    "lng": -122.276
  },
  {
    "name": "Port of Norfolk (Virginia)",
    "country": "United States",
    "lat": 36.8508,
    "lng": -76.2859
  },
  {
    "name": "Port of Miami",
    "country": "United States",
    "lat": 25.7781,
    "lng": -80.1794
  },
   {
    "name": "Port of Manzanillo",
    "country": "Mexico",
    "lat": 19.05,
    "lng": -104.3167
  },
  {
    "name": "Port of Lázaro Cárdenas",
    "country": "Mexico",
    "lat": 17.9584,
    "lng": -102.1944
  },
  {
    "name": "Port of Veracruz",
    "country": "Mexico",
    "lat": 19.2044,
    "lng": -96.1358
  },
  {
    "name": "Port of Altamira",
    "country": "Mexico",
    "lat": 22.3926,
    "lng": -97.8841
  },
  {
    "name": "Port of Ensenada",
    "country": "Mexico",
    "lat": 31.85,
    "lng": -116.6167
  },
  {
    "name": "Port of Progreso",
    "country": "Mexico",
    "lat": 21.2833,
    "lng": -89.6667
  },
  {
    "name": "Port of Tuxpan",
    "country": "Mexico",
    "lat": 20.9581,
    "lng": -97.4006
  },
  {
    "name": "Port of Guaymas",
    "country": "Mexico",
    "lat": 27.9189,
    "lng": -110.8978
  },
  {
    "name": "Port of Coatzacoalcos",
    "country": "Mexico",
    "lat": 18.15,
    "lng": -94.4333
  },
    {
    "name": "Port of Cartagena",
    "country": "Colombia",
    "lat": 10.391,
    "lng": -75.5472
  },
  {
    "name": "Port of Buenaventura",
    "country": "Colombia",
    "lat": 3.8801,
    "lng": -77.0312
  },
  {
    "name": "Port of Barranquilla",
    "country": "Colombia",
    "lat": 10.9685,
    "lng": -74.7813
  },
  {
    "name": "Port of Santa Marta",
    "country": "Colombia",
    "lat": 11.2488,
    "lng": -74.2017
  },
  {
    "name": "Port of Tumaco",
    "country": "Colombia",
    "lat": 1.8094,
    "lng": -78.7557
  },
    {
    "name": "Port of Mariel",
    "country": "Cuba",
    "lat": 22.9833,
    "lng": -82.75
  },
  {
    "name": "Port of Havana",
    "country": "Cuba",
    "lat": 23.1136,
    "lng": -82.3666
  },
  {
    "name": "Port of Santiago de Cuba",
    "country": "Cuba",
    "lat": 19.9686,
    "lng": -75.7885
  },
  {
    "name": "Port of Cienfuegos",
    "country": "Cuba",
    "lat": 22.1453,
    "lng": -80.4431
  },
  {
    "name": "Port of Nuevitas",
    "country": "Cuba",
    "lat": 21.5453,
    "lng": -77.2644
  },
  {
    "name": "Port of Buenos Aires",
    "country": "Argentina",
    "lat": -34.6012,
    "lng": -58.3683
  },
  {
    "name": "Port of Rosario",
    "country": "Argentina",
    "lat": -32.9468,
    "lng": -60.6393
  },
  {
    "name": "Port of Bahía Blanca",
    "country": "Argentina",
    "lat": -38.7619,
    "lng": -62.2708
  },
  {
    "name": "Port of Quequén",
    "country": "Argentina",
    "lat": -38.5611,
    "lng": -58.7103
  },
  {
    "name": "Port of San Lorenzo",
    "country": "Argentina",
    "lat": -32.7448,
    "lng": -60.7321
  },
  {
    "name": "Port of Callao",
    "country": "Peru",
    "lat": -12.0566,
    "lng": -77.1528
  },
  {
    "name": "Port of Paita",
    "country": "Peru",
    "lat": -5.0892,
    "lng": -81.0985
  },
  {
    "name": "Port of Matarani",
    "country": "Peru",
    "lat": -17.0033,
    "lng": -72.1036
  },
  {
    "name": "Port of Ilo",
    "country": "Peru",
    "lat": -17.6394,
    "lng": -71.3378
  },
  {
    "name": "Port of Salaverry",
    "country": "Peru",
    "lat": -8.2293,
    "lng": -78.9876
  },
    {
    "name": "Port of Puerto Cabello",
    "country": "Venezuela",
    "lat": 10.4753,
    "lng": -68.0141
  },
  {
    "name": "Port of La Guaira",
    "country": "Venezuela",
    "lat": 10.6,
    "lng": -66.9333
  },
  {
    "name": "Port of Maracaibo",
    "country": "Venezuela",
    "lat": 10.6317,
    "lng": -71.6189
  },
  {
    "name": "Port of Guanta",
    "country": "Venezuela",
    "lat": 10.2386,
    "lng": -64.5914
  },
  {
    "name": "Port of El Guamache",
    "country": "Venezuela",
    "lat": 10.9361,
    "lng": -64.1056
  },
   {
    "name": "Port of San Antonio",
    "country": "Chile",
    "lat": -33.5933,
    "lng": -71.6127
  },
  {
    "name": "Port of Valparaíso",
    "country": "Chile",
    "lat": -33.038,
    "lng": -71.6273
  },
  {
    "name": "Port of Talcahuano",
    "country": "Chile",
    "lat": -36.7167,
    "lng": -73.1167
  },
  {
    "name": "Port of Iquique",
    "country": "Chile",
    "lat": -20.2133,
    "lng": -70.1444
  },
  {
    "name": "Port of Antofagasta",
    "country": "Chile",
    "lat": -23.6524,
    "lng": -70.3954
  },
  {
    "name": "Port of Arica",
    "country": "Chile",
    "lat": -18.4783,
    "lng": -70.3211
  },
  {
    "name": "Port of Puerto Montt",
    "country": "Chile",
    "lat": -41.4717,
    "lng": -72.9369
  },
   {
    "name": "Port of Guayaquil",
    "country": "Ecuador",
    "lat": -2.2581,
    "lng": -79.8975
  },
  {
    "name": "Port of Manta",
    "country": "Ecuador",
    "lat": -0.9461,
    "lng": -80.7089
  },
  {
    "name": "Port of Puerto Bolívar",
    "country": "Ecuador",
    "lat": -3.2656,
    "lng": -80.0084
  },
  {
    "name": "Port of Esmeraldas",
    "country": "Ecuador",
    "lat": 0.9516,
    "lng": -79.6594
  },
   {
    "name": "Port of Santos",
    "country": "Brazil",
    "lat": -23.9618,
    "lng": -46.3333
  },
  {
    "name": "Port of Paranaguá",
    "country": "Brazil",
    "lat": -25.5167,
    "lng": -48.5167
  },
  {
    "name": "Port of Rio Grande",
    "country": "Brazil",
    "lat": -32.0333,
    "lng": -52.1
  },
  {
    "name": "Port of Itajaí",
    "country": "Brazil",
    "lat": -26.9,
    "lng": -48.65
  },
  {
    "name": "Port of Suape",
    "country": "Brazil",
    "lat": -8.391,
    "lng": -34.9606
  },
  {
    "name": "Port of Salvador",
    "country": "Brazil",
    "lat": -12.9714,
    "lng": -38.5014
  },
  {
    "name": "Port of Rio de Janeiro",
    "country": "Brazil",
    "lat": -22.895,
    "lng": -43.1794
  },
  {
    "name": "Port of Vitória",
    "country": "Brazil",
    "lat": -20.3155,
    "lng": -40.3128
  },
  {
    "name": "Port of Itaqui (São Luís)",
    "country": "Brazil",
    "lat": -2.5297,
    "lng": -44.3071
  },
  {
    "name": "Port of Manaus",
    "country": "Brazil",
    "lat": -3.1333,
    "lng": -60.0167
  },
  {
    "name": "Port of Montevideo",
    "country": "Uruguay",
    "lat": -34.9033,
    "lng": -56.2117
  },
  {
    "name": "Port of Nueva Palmira",
    "country": "Uruguay",
    "lat": -33.8667,
    "lng": -58.4167
  },
  {
    "name": "Port of Colonia",
    "country": "Uruguay",
    "lat": -34.4717,
    "lng": -57.8433
  },
  {
    "name": "Port of Fray Bentos",
    "country": "Uruguay",
    "lat": -33.1333,
    "lng": -58.3167
  },
   {
    "name": "Port of Puerto Quetzal",
    "country": "Guatemala",
    "lat": 13.9214,
    "lng": -90.7876
  },
  {
    "name": "Port of Santo Tomás de Castilla",
    "country": "Guatemala",
    "lat": 15.6906,
    "lng": -88.6061
  },
  {
    "name": "Port of Corinto",
    "country": "Nicaragua",
    "lat": 12.4833,
    "lng": -87.1833
  },
  {
    "name": "Port of El Rama",
    "country": "Nicaragua",
    "lat": 11.5214,
    "lng": -84.555
  },
  {
    "name": "Port of Puerto Sandino",
    "country": "Nicaragua",
    "lat": 12.1778,
    "lng": -86.7647
  },
   {
    "name": "Port of Felixstowe",
    "country": "United Kingdom",
    "lat": 51.9536,
    "lng": 1.3111
  },
  {
    "name": "Port of Southampton",
    "country": "United Kingdom",
    "lat": 50.8969,
    "lng": -1.4043
  },
  {
    "name": "Port of London",
    "country": "United Kingdom",
    "lat": 51.5063,
    "lng": 0.0553
  },
  {
    "name": "Port of Immingham",
    "country": "United Kingdom",
    "lat": 53.6185,
    "lng": -0.1841
  },
  {
    "name": "Port of Liverpool",
    "country": "United Kingdom",
    "lat": 53.4431,
    "lng": -3.0032
  },
  {
    "name": "Port of Teesport",
    "country": "United Kingdom",
    "lat": 54.6086,
    "lng": -1.1792
  },
  {
    "name": "Port of Grangemouth",
    "country": "United Kingdom",
    "lat": 56.0231,
    "lng": -3.7196
  },
  {
    "name": "Port of Bristol (Avonmouth)",
    "country": "United Kingdom",
    "lat": 51.5036,
    "lng": -2.7097
  },
  {
    "name": "Port of Tyne",
    "country": "United Kingdom",
    "lat": 54.9754,
    "lng": -1.5085
  },
   {
    "name": "Port of Dublin",
    "country": "Ireland",
    "lat": 53.3468,
    "lng": -6.195
  },
  {
    "name": "Port of Cork",
    "country": "Ireland",
    "lat": 51.85,
    "lng": -8.3167
  },
  {
    "name": "Port of Shannon Foynes",
    "country": "Ireland",
    "lat": 52.6139,
    "lng": -9.1081
  },
  {
    "name": "Port of Waterford",
    "country": "Ireland",
    "lat": 52.2593,
    "lng": -7.1066
  },
  {
    "name": "Port of Rosslare Europort",
    "country": "Ireland",
    "lat": 52.2497,
    "lng": -6.3381
  },
   {
    "name": "Port of Gdańsk",
    "country": "Poland",
    "lat": 54.3833,
    "lng": 18.65
  },
  {
    "name": "Port of Gdynia",
    "country": "Poland",
    "lat": 54.5189,
    "lng": 18.5383
  },
  {
    "name": "Port of Aarhus",
    "country": "Denmark",
    "lat": 56.1537,
    "lng": 10.2145
  },
  {
    "name": "Port of Copenhagen-Malmö",
    "country": "Denmark",
    "lat": 55.6761,
    "lng": 12.5933
  },
  {
    "name": "Port of Oslo",
    "country": "Norway",
    "lat": 59.9094,
    "lng": 10.7349
  },
  {
    "name": "Port of Bergen",
    "country": "Norway",
    "lat": 60.3913,
    "lng": 5.3221
  },
  {
    "name": "Port of Gothenburg",
    "country": "Sweden",
    "lat": 57.7066,
    "lng": 11.9336
  },
  {
    "name": "Port of Stockholm",
    "country": "Sweden",
    "lat": 59.3293,
    "lng": 18.0686
  },
  {
    "name": "Port of Helsinki",
    "country": "Finland",
    "lat": 60.1719,
    "lng": 24.9524
  },
  {
    "name": "Port of Kotka-Hamina",
    "country": "Finland",
    "lat": 60.4565,
    "lng": 26.9455
  },
  {
    "name": "Port of Tallinn",
    "country": "Estonia",
    "lat": 59.4439,
    "lng": 24.7536
  },
  {
    "name": "Port of Riga",
    "country": "Latvia",
    "lat": 56.95,
    "lng": 24.1
  },
  {
    "name": "Port of Klaipėda",
    "country": "Lithuania",
    "lat": 55.7069,
    "lng": 21.1319
  },
  {
    "name": "Port of Bremerhaven",
    "country": "Germany",
    "lat": 53.5396,
    "lng": 8.5809
  },
  {
    "name": "Port of Wilhelmshaven",
    "country": "Germany",
    "lat": 53.5333,
    "lng": 8.15
  },
  {
    "name": "Port of Lübeck",
    "country": "Germany",
    "lat": 53.8697,
    "lng": 10.6866
  }
  
]
